[1494938987296][**] $GPRMC,124946,A,5907.4750,N,01014.1000,E,0.1000,358.000,160517,,*22
[1494938987364][**] $GPRSA,222.00,A,,,*26
[1494938987423][**] $GPDBT,14.30,f,4.36,M,,*59
[1494938987483][**] $GPVHW,,,321.50,M,0.00,N,0.00,K*0D
[1494938987543][**] $GPMTW,50.00,C*31
[1494938987605][**] $GPVHW,,,321.50,M,0.00,N,0.00,K*0D
[1494938987662][**] $GPMTW,-1.00,C*28
[1494938987723][**] $GPHDG,322.00,,,2.00,E*34
[1494938987783][*-] $GPVTG,358.00,T,,,0.10,N,0.19,K*1A
[1494938987846][*-] $GPVTG,358.00,T,,,0.10,N,0.19,K*1A
[1494938987904][**] $GPVWR,151.50,R,3.90,N,,,,*52
[1494938987962][**] $GPMWV,151.50,R,3.90,N,A*20
[1494938988022][**] $GPVWR,151.50,R,3.90,N,,,,*52
[1494938988083][**] $GPMWV,151.50,R,3.90,N,A*20
[1494938988145][**] $GPGGA,124947,5907.4750,N,01014.1000,E,1,04,2.00,3.00,M,,,*3D
[1494938988148][**] $GPRMC,124947,A,5907.4750,N,01014.1000,E,0.1000,358.000,160517,,*23
[1494938988224][**] $GPGGA,124947,5907.4700,N,01014.1000,E,1,04,2.00,3.00,M,,,*38
[1494938988227][**] $GPRMC,124947,A,5907.4700,N,01014.1000,E,0.1000,358.000,160517,,*26
[1494938988283][**] $GPRSA,222.00,A,,,*26
[1494938988344][**] $GPDBT,14.40,f,4.39,M,,*51
[1494938988405][**] $GPVHW,,,322.00,M,0.00,N,0.00,K*0B
[1494938988462][**] $GPMTW,50.00,C*31
[1494938988523][**] $GPVHW,,,322.00,M,0.00,N,0.00,K*0B
[1494938988582][**] $GPMTW,-1.00,C*28
[1494938988643][**] $GPHDG,322.00,,,2.00,E*34
[1494938988706][**] $GPVWR,138.00,R,3.90,N,,,,*58
[1494938988764][**] $GPMWV,138.00,R,3.90,N,A*2A
[1494938988825][**] $GPVWR,138.00,R,3.70,N,,,,*56
[1494938988882][**] $GPMWV,138.00,R,3.70,N,A*24
[1494938988945][*-] $GPVTG,358.00,T,,,0.10,N,0.19,K*1A
[1494938989004][*-] $GPVTG,358.00,T,,,0.10,N,0.19,K*1A
[1494938989065][**] $GPGGA,124948,5907.4750,N,01014.1000,E,1,04,2.00,3.00,M,,,*32
[1494938989068][**] $GPRMC,124948,A,5907.4750,N,01014.1000,E,0.1000,358.000,160517,,*2C
[1494938989133][**] $GPRSA,222.00,A,,,*26
[1494938989194][**] $GPDBT,14.80,f,4.51,M,,*53
[1494938989253][**] $GPVHW,,,322.00,M,0.00,N,0.00,K*0B
[1494938989313][**] $GPMTW,50.00,C*31
[1494938989373][**] $GPVHW,,,322.00,M,0.00,N,0.00,K*0B
[1494938989434][**] $GPMTW,-1.00,C*28
[1494938989494][**] $GPHDG,322.00,,,2.00,E*34
[1494938989553][**] $GPVWR,111.50,R,3.70,N,,,,*58
[1494938989613][**] $GPMWV,111.50,R,3.70,N,A*2A
[1494938989674][**] $GPVWR,111.50,R,3.50,N,,,,*5A
[1494938989733][**] $GPMWV,111.50,R,3.50,N,A*28
[1494938989793][*-] $GPVTG,358.00,T,,,0.10,N,0.19,K*1A
[1494938989854][*-] $GPVTG,358.00,T,,,0.10,N,0.19,K*1A
[1494938989915][**] $GPGGA,124949,5907.4750,N,01014.1000,E,1,04,2.00,3.00,M,,,*33
[1494938989918][**] $GPRMC,124949,A,5907.4750,N,01014.1000,E,0.1000,358.000,160517,,*2D
[1494938989983][**] $GPRSA,222.00,A,,,*26
[1494938990044][**] $GPDBT,14.50,f,4.42,M,,*5C
[1494938990104][**] $GPVHW,,,322.00,M,0.00,N,0.00,K*0B
[1494938990162][**] $GPMTW,50.00,C*31
[1494938990224][**] $GPVHW,,,322.00,M,0.00,N,0.00,K*0B
[1494938990657][**] $GPMTW,-1.00,C*28
[1494938990659][**] $GPHDG,322.00,,,2.00,E*34
[1494938990663][**] $GPVWR,160.50,R,3.50,N,,,,*5C
[1494938990724][**] $GPMWV,160.50,R,3.50,N,A*2E
[1494938990783][**] $GPVWR,160.50,R,3.80,N,,,,*51
[1494938990843][**] $GPMWV,160.50,R,3.80,N,A*23
[1494938990904][*-] $GPVTG,358.00,T,,,0.10,N,0.19,K*1A
[1494938990964][*-] $GPVTG,358.00,T,,,0.10,N,0.19,K*1A
[1494938991024][**] $GPGGA,124950,5907.4750,N,01014.1000,E,1,04,2.00,3.00,M,,,*3B
[1494938991029][**] $GPRMC,124950,A,5907.4750,N,01014.1000,E,0.1000,358.000,160517,,*25
[1494938991093][**] $GPGSA,A,2,,,,,,,,,,,,,0.0,2.0,0.0*31
[1494938991153][**] $GPRSA,222.00,A,,,*26
[1494938991211][**] $GPDBT,14.50,f,4.42,M,,*5C
[1494938991274][**] $GPVHW,,,322.00,M,0.00,N,0.00,K*0B
[1494938991331][**] $GPMTW,50.00,C*31
[1494938991393][**] $GPVHW,,,322.00,M,0.00,N,0.00,K*0B
[1494938991451][**] $GPMTW,-1.00,C*28
[1494938991514][**] $GPHDG,322.00,,,2.00,E*34
[1494938991640][**] $GPVWR,170.50,R,3.80,N,,,,*50
[1494938991701][**] $GPMWV,170.50,R,3.80,N,A*22
[1494938991762][**] $GPVWR,170.50,R,4.60,N,,,,*59
[1494938991822][**] $GPMWV,170.50,R,4.60,N,A*2B
[1494938991883][*-] $GPVTG,358.00,T,,,0.10,N,0.19,K*1A
[1494938991942][*-] $GPVTG,358.00,T,,,0.10,N,0.19,K*1A
[1494938992002][**] $GPGGA,124951,5907.4750,N,01014.1000,E,1,04,2.00,0.00,M,,,*39
[1494938992004][**] $GPRMC,124951,A,5907.4750,N,01014.1000,E,0.1000,358.000,160517,,*24
[1494938992074][**] $GPDBT,14.50,f,4.42,M,,*5C
[1494938992133][**] $GPVHW,,,322.00,M,0.00,N,0.00,K*0B
[1494938992191][**] $GPRSA,222.00,A,,,*26
[1494938992252][**] $GPMTW,50.00,C*31
[1494938992312][**] $GPVHW,,,322.50,M,0.00,N,0.00,K*0E
[1494938992384][**] $GPMTW,-1.00,C*28
[1494938992442][**] $GPVWR,166.50,R,4.60,N,,,,*5E
[1494938992502][**] $GPMWV,166.50,R,4.60,N,A*2C
[1494938992562][**] $GPVWR,166.50,R,6.10,N,,,,*5B
[1494938992621][**] $GPMWV,166.50,R,6.10,N,A*29
[1494938992682][**] $GPHDG,322.00,,,2.00,E*34
[1494938992743][*-] $GPVTG,358.00,T,,,0.10,N,0.19,K*1A
[1494938992802][*-] $GPVTG,358.00,T,,,0.10,N,0.19,K*1A
[1494938992997][**] $GPGGA,124952,5907.4750,N,01014.1000,E,1,04,2.00,0.00,M,,,*3A
[1494938993000][**] $GPRMC,124952,A,5907.4750,N,01014.1000,E,0.1000,358.000,160517,,*27
[1494938993064][**] $GPGGA,124952,5907.4700,N,01014.1000,E,1,04,2.00,0.00,M,,,*3F
[1494938993068][**] $GPRMC,124952,A,5907.4700,N,01014.1000,E,0.1000,358.000,160517,,*22
[1494938993132][**] $GPDBT,14.50,f,4.42,M,,*5C
[1494938993193][**] $GPVHW,,,322.00,M,0.00,N,0.00,K*0B
[1494938993252][**] $GPRSA,222.00,A,,,*26
[1494938993312][**] $GPMTW,50.00,C*31
[1494938993374][**] $GPVHW,,,322.50,M,0.00,N,0.00,K*0E
[1494938993457][**] $GPMTW,-1.00,C*28
[1494938993512][**] $GPVWR,168.00,R,6.10,N,,,,*50
[1494938993574][**] $GPMWV,168.00,R,6.10,N,A*22
[1494938993631][**] $GPVWR,168.00,R,7.90,N,,,,*59
[1494938993692][**] $GPMWV,168.00,R,7.90,N,A*2B
[1494938993752][**] $GPHDG,322.00,,,2.00,E*34
[1494938993812][*-] $GPVTG,358.00,T,,,0.10,N,0.19,K*1A
[1494938993872][*-] $GPVTG,358.00,T,,,0.10,N,0.19,K*1A
[1494938994347][**] $GPGGA,124953,5907.4750,N,01014.1000,E,1,04,2.00,0.00,M,,,*3B
[1494938994351][**] $GPRMC,124953,A,5907.4750,N,01014.1000,E,0.1000,358.000,160517,,*26
[1494938994416][**] $GPDBT,14.80,f,4.51,M,,*53
[1494938994475][**] $GPVHW,,,322.00,M,0.00,N,0.00,K*0B
[1494938994532][**] $GPMTW,50.00,C*31
[1494938994592][**] $GPVHW,,,322.00,M,0.00,N,0.00,K*0B
[1494938994654][**] $GPMTW,-1.00,C*28
[1494938994714][**] $GPRSA,222.00,A,,,*26
[1494938994772][**] $GPVWR,149.50,R,7.90,N,,,,*5F
[1494938994832][**] $GPMWV,149.50,R,7.90,N,A*2D
[1494938994892][**] $GPVWR,149.50,R,7.70,N,,,,*51
[1494938994952][**] $GPMWV,149.50,R,7.70,N,A*23
[1494938995013][**] $GPHDG,322.00,,,2.00,E*34
[1494938995073][*-] $GPVTG,358.00,T,,,0.10,N,0.19,K*1A
[1494938995133][*-] $GPVTG,358.00,T,,,0.10,N,0.19,K*1A
[1494938995195][**] $GPGGA,124954,5907.4750,N,01014.1000,E,1,04,2.00,0.00,M,,,*3C
[1494938995197][**] $GPRMC,124954,A,5907.4750,N,01014.1000,E,0.1000,358.000,160517,,*21
[1494938995262][**] $GPDBT,15.00,f,4.57,M,,*5C
[1494938995324][**] $GPVHW,,,322.00,M,0.00,N,0.00,K*0B
[1494938995382][**] $GPMTW,50.00,C*31
[1494938995444][**] $GPVHW,,,322.00,M,0.00,N,0.00,K*0B
[1494938995504][**] $GPMTW,-1.00,C*28
[1494938995564][**] $GPRSA,222.00,A,,,*26
[1494938995625][**] $GPVWR,156.00,R,7.70,N,,,,*5A
[1494938995686][**] $GPMWV,156.00,R,7.70,N,A*28
[1494938995747][**] $GPVWR,156.00,R,8.40,N,,,,*56
[1494938995801][**] $GPMWV,156.00,R,8.40,N,A*24
[1494938995866][**] $GPHDG,322.00,,,2.00,E*34
[1494938995927][*-] $GPVTG,358.00,T,,,0.10,N,0.19,K*1A
[1494938995983][*-] $GPVTG,358.00,T,,,0.10,N,0.19,K*1A
[1494938996045][**] $GPGGA,124955,5907.4750,N,01014.1000,E,1,04,2.00,0.00,M,,,*3D
[1494938996059][**] $GPRMC,124955,A,5907.4750,N,01014.1000,E,0.1000,358.000,160517,,*20
[1494938996274][**] $GPDBT,14.50,f,4.42,M,,*5C
[1494938996333][**] $GPVHW,,,322.00,M,0.00,N,0.00,K*0B
[1494938996392][**] $GPMTW,50.00,C*31
[1494938996452][**] $GPRSA,222.00,A,,,*26
[1494938996513][**] $GPVHW,,,322.50,M,0.00,N,0.00,K*0E
[1494938996574][**] $GPMTW,-1.00,C*28
[1494938996634][**] $GPVWR,142.00,R,8.40,N,,,,*53
[1494938996692][**] $GPMWV,142.00,R,8.40,N,A*21
[1494938996754][**] $GPVWR,142.00,R,7.70,N,,,,*5F
[1494938996812][**] $GPMWV,142.00,R,7.70,N,A*2D
[1494938997216][*-] $GPVTG,358.00,T,,,0.10,N,0.19,K*1A
[1494938997217][**] $GPHDG,322.00,,,2.00,E*34
[1494938997273][*-] $GPVTG,358.00,T,,,0.10,N,0.19,K*1A
[1494938997333][**] $GPGGA,124956,5907.4750,N,01014.1000,E,1,04,2.00,0.00,M,,,*3E
[1494938997335][**] $GPRMC,124956,A,5907.4750,N,01014.1000,E,0.1000,358.000,160517,,*23
[1494938997403][**] $GPDBT,14.50,f,4.42,M,,*5C
[1494938997467][**] $GPVHW,,,322.00,M,0.00,N,0.00,K*0B
[1494938997523][**] $GPMTW,50.00,C*31
[1494938997582][**] $GPVHW,,,322.00,M,0.00,N,0.00,K*0B
[1494938997642][**] $GPMTW,-1.00,C*28
[1494938997704][**] $GPRSA,222.00,A,,,*26
[1494938997762][**] $GPVWR,136.00,R,7.70,N,,,,*5C
[1494938997827][**] $GPMWV,136.00,R,7.70,N,A*2E
[1494938997882][**] $GPVWR,136.00,R,6.90,N,,,,*53
[1494938997946][**] $GPMWV,136.00,R,6.90,N,A*21
[1494938998006][*-] $GPVTG,358.00,T,,,0.10,N,0.19,K*1A
[1494938998064][*-] $GPVTG,358.00,T,,,0.10,N,0.19,K*1A
[1494938998123][**] $GPGGA,124957,5907.4750,N,01014.1000,E,1,04,2.00,0.00,M,,,*3F
[1494938998125][**] $GPRMC,124957,A,5907.4750,N,01014.1000,E,0.1000,358.000,160517,,*22
[1494938998193][**] $GPGGA,124957,5907.4700,N,01014.1000,E,1,04,2.00,0.00,M,,,*3A
[1494938998196][**] $GPRMC,124957,A,5907.4700,N,01014.1000,E,0.1000,358.000,160517,,*27
[1494938998263][**] $GPHDG,322.00,,,2.00,E*34
[1494938998324][**] $GPDBT,14.50,f,4.42,M,,*5C
[1494938998384][**] $GPVHW,,,322.00,M,0.00,N,0.00,K*0B
[1494938998442][**] $GPMTW,50.00,C*31
[1494938998503][**] $GPVHW,,,322.00,M,0.00,N,0.00,K*0B
[1494938998562][**] $GPMTW,-1.00,C*28
[1494938998622][**] $GPRSA,222.00,A,,,*26
[1494938998684][**] $GPVWR,145.00,R,6.90,N,,,,*57
[1494938998744][**] $GPMWV,145.00,R,6.90,N,A*25
[1494938998804][**] $GPVWR,145.00,R,7.30,N,,,,*5C
[1494938998874][**] $GPMWV,145.00,R,7.30,N,A*2E
[1494938998922][*-] $GPVTG,358.00,T,,,0.10,N,0.19,K*1A
[1494938998983][*-] $GPVTG,358.00,T,,,0.10,N,0.19,K*1A
[1494938999043][**] $GPGGA,124958,5907.4750,N,01014.1000,E,1,04,2.00,0.00,M,,,*30
[1494938999045][**] $GPRMC,124958,A,5907.4750,N,01014.1000,E,0.1000,358.000,160517,,*2D
[1494938999187][**] $GPHDG,322.00,,,2.00,E*34
[1494938999243][**] $GPDBT,14.30,f,4.36,M,,*59
[1494938999302][**] $GPVHW,,,322.00,M,0.00,N,0.00,K*0B
[1494938999362][**] $GPMTW,50.00,C*31
[1494938999424][**] $GPVHW,,,322.00,M,0.00,N,0.00,K*0B
[1494938999484][**] $GPMTW,-1.00,C*28
[1494938999544][**] $GPVWR,140.00,R,7.30,N,,,,*59
[1494938999602][**] $GPMWV,140.00,R,7.30,N,A*2B
[1494938999664][**] $GPVWR,140.00,R,6.50,N,,,,*5E
[1494938999723][**] $GPMWV,140.00,R,6.50,N,A*2C
[1494938999795][**] $GPRSA,222.00,A,,,*26
[1494938999843][*-] $GPVTG,358.00,T,,,0.10,N,0.19,K*1A
[1494938999905][*-] $GPVTG,358.00,T,,,0.10,N,0.19,K*1A